{
"type": "FeatureCollection",
"name": "POINT",
"crs": { "type": "name", "properties": { "name": "urn:ogc:def:crs:OGC:1.3:CRS84" } },
"features": [
{ "type": "Feature", "properties": { "name": "瑞金", "step": 1 }, "geometry": { "type": "Point", "coordinates": [ 116.023364331722689, 25.891896748362285 ] } },
{ "type": "Feature", "properties": { "name": "湘江", "step": 2 }, "geometry": { "type": "Point", "coordinates": [ 110.6637376, 25.6147987 ] } },
{ "type": "Feature", "properties": { "name": "乌江", "step": 3 }, "geometry": { "type": "Point", "coordinates": [ 107.4137545, 27.3161578 ] } },
{ "type": "Feature", "properties": { "name": "遵义", "step": 4 }, "geometry": { "type": "Point", "coordinates": [ 106.9265507, 27.6954104 ] } },
{ "type": "Feature", "properties": { "name": "赤水河", "step": 5 }, "geometry": { "type": "Point", "coordinates": [ 105.7032051, 28.5968798 ] } },
{ "type": "Feature", "properties": { "name": "金沙江", "step": 6 }, "geometry": { "type": "Point", "coordinates": [ 101.8954945, 25.9748989 ] } },
{ "type": "Feature", "properties": { "name": "大渡河", "step": 7 }, "geometry": { "type": "Point", "coordinates": [ 102.2915094, 29.2809557 ] } },
{ "type": "Feature", "properties": { "name": "泸定桥", "step": 8 }, "geometry": { "type": "Point", "coordinates": [ 102.2380811, 29.9188546 ] } },
{ "type": "Feature", "properties": { "name": "毛儿盖", "step": 9 }, "geometry": { "type": "Point", "coordinates": [ 103.0708196, 32.6062506 ] } },
{ "type": "Feature", "properties": { "name": "腊子口", "step": 10 }, "geometry": { "type": "Point", "coordinates": [ 103.9016759, 34.1301156 ] } },
{ "type": "Feature", "properties": { "name": "吴起镇", "step": 11 }, "geometry": { "type": "Point", "coordinates": [ 108.1828786, 36.9332679 ] } },
{ "type": "Feature", "properties": { "name": "会宁", "step": 12 }, "geometry": { "type": "Point", "coordinates": [ 105.0596051, 35.6985098 ] } }
]
}
